Date,Time(UTC-3),Time from start,Latitude,Longitude,Altitude (m),Distance from start (m),Vn (km/h),Ve (km/h),Vd (km/h),Vf (km/h), Vl (km/h),Speed (km/h),Ax,Ay,Az,Af,Al,Ad,Heading,Pitch,Roll,Wx,Wy,Wz,Wf,Wl,Wd,LatitudeAcc,LongitudeAcc,AltitudeAcc (m),VnAcc (km/h),VeAcc (km/h),VdAcc (km/h),PitchAcc,RollAcc,HeadingAcc,Online Heave Value (m),iHeave Date,iHeave Time (UTC-3),iHeave Value (m),
2022-10-29,12:57:10.350,0.000,45.96110065,-66.62690559,-20.567,0.000,-0.022,-0.023,0.044,0.029,-0.014,0.032,-0.494,-0.868,-9.760,0.006,-0.004,-9.811,253.721,-2.919,5.059,0.170,0.215,0.100,0.163,0.205,0.127,,,,,,,,,,0.032,,,,
2022-10-29,12:57:09.350,1.000,45.96110063,-66.62690559,-20.567,0.009,-0.023,-0.022,0.043,0.028,-0.016,0.032,-0.495,-0.863,-9.761,0.005,0.001,-9.811,253.723,-2.920,5.060,0.064,0.128,0.026,0.062,0.126,0.040,0.063,0.063,0.075,0.130,0.130,0.047,0.101,0.101,0.176,0.030,,,,
2022-10-29,12:57:10.350,2.000,45.96110061,-66.62690559,-20.565,0.018,-0.022,-0.023,0.042,0.028,-0.015,0.032,-0.498,-0.862,-9.759,0.001,0.003,-9.810,253.717,-2.921,5.066,0.307,-0.043,0.013,0.306,-0.044,0.025,0.063,0.063,0.075,0.130,0.130,0.047,0.101,0.101,0.176,0.030,,,,
2022-10-29,12:57:11.350,3.000,45.96110062,-66.62690560,-20.564,0.026,-0.017,-0.024,0.041,0.028,-0.009,0.030,-0.497,-0.860,-9.754,0.002,0.004,-9.804,253.711,-2.921,5.066,-0.131,-0.036,-0.048,-0.128,-0.032,-0.057,0.063,0.063,0.075,0.130,0.130,0.047,0.101,0.101,0.176,0.030,,,,
2022-10-29,12:57:12.350,4.000,45.96110062,-66.62690562,-20.562,0.035,-0.010,-0.027,0.041,0.029,-0.002,0.029,-0.497,-0.868,-9.760,0.003,-0.002,-9.811,253.695,-2.917,5.071,-0.147,0.329,0.116,-0.154,0.317,0.137,0.063,0.063,0.075,0.130,0.130,0.047,0.100,0.100,0.176,0.030,,,,
2022-10-29,12:57:13.350,5.000,45.96110064,-66.62690561,-20.562,0.043,-0.004,-0.027,0.040,0.027,0.004,0.027,-0.497,-0.862,-9.766,0.003,0.005,-9.816,253.688,-2.915,5.074,0.226,0.340,0.091,0.220,0.330,0.132,0.063,0.063,0.075,0.130,0.130,0.047,0.101,0.100,0.176,0.030,,,,
2022-10-29,12:57:14.350,6.000,45.96110069,-66.62690559,-20.561,0.050,0.005,-0.025,0.040,0.023,0.011,0.025,-0.495,-0.863,-9.762,0.003,0.004,-9.813,253.693,-2.913,5.075,0.078,0.084,0.095,0.073,0.075,0.106,0.063,0.063,0.075,0.130,0.130,0.047,0.100,0.100,0.175,0.030,,,,
2022-10-29,12:57:15.350,7.000,45.96110074,-66.62690559,-20.562,0.057,0.015,-0.023,0.039,0.018,0.021,0.027,-0.488,-0.867,-9.760,0.010,-0.000,-9.810,253.696,-2.910,5.077,0.034,0.274,0.313,0.017,0.246,0.337,0.063,0.063,0.075,0.130,0.130,0.047,0.100,0.100,0.175,0.030,,,,
2022-10-29,12:57:16.350,8.000,45.96110078,-66.62690558,-20.563,0.065,0.022,-0.021,0.039,0.013,0.027,0.030,-0.501,-0.858,-9.767,-0.003,0.010,-9.817,253.692,-2.907,5.081,0.273,0.201,-0.136,0.279,0.212,-0.104,0.063,0.063,0.075,0.130,0.130,0.047,0.100,0.099,0.183,0.030,,,,
2022-10-29,12:57:17.350,9.000,45.96110081,-66.62690557,-20.564,0.074,0.026,-0.017,0.039,0.009,0.030,0.031,-0.503,-0.862,-9.756,-0.005,0.005,-9.807,253.695,-2.908,5.080,-0.104,0.011,-0.368,-0.085,0.044,-0.370,0.062,0.062,0.074,0.130,0.130,0.047,0.100,0.100,0.180,0.030,,,,
2022-10-29,12:57:18.350,10.000,45.96110083,-66.62690556,-20.566,0.082,0.025,-0.015,0.038,0.007,0.028,0.029,-0.499,-0.851,-9.767,-0.000,0.017,-9.817,253.691,-2.914,5.078,0.443,-0.316,-0.123,0.450,-0.304,-0.127,0.063,0.063,0.075,0.130,0.130,0.047,0.099,0.099,0.178,0.028,,,,
2022-10-29,12:57:19.350,11.000,45.96110083,-66.62690558,-20.566,0.090,0.022,-0.015,0.037,0.008,0.025,0.026,-0.500,-0.865,-9.758,-0.002,0.002,-9.809,253.700,-2.910,5.073,0.022,-0.048,0.025,0.021,-0.050,0.021,0.063,0.062,0.075,0.130,0.130,0.047,0.100,0.099,0.177,0.028,,,,
2022-10-29,12:57:20.350,12.000,45.96110083,-66.62690555,-20.565,0.097,0.020,-0.014,0.036,0.008,0.023,0.024,-0.493,-0.863,-9.759,0.005,0.003,-9.809,253.700,-2.912,5.072,-0.017,-0.166,-0.053,-0.014,-0.161,-0.068,0.063,0.063,0.075,0.130,0.130,0.047,0.099,0.099,0.176,0.028,,,,
2022-10-29,12:57:21.350,13.000,45.96110082,-66.62690556,-20.564,0.103,0.016,-0.015,0.035,0.010,0.019,0.022,-0.494,-0.861,-9.767,0.004,0.005,-9.817,253.712,-2.912,5.069,0.257,0.081,0.211,0.246,0.062,0.230,0.063,0.063,0.075,0.130,0.130,0.047,0.099,0.099,0.175,0.028,,,,
2022-10-29,12:57:22.350,14.000,45.96110079,-66.62690555,-20.564,0.108,0.008,-0.013,0.035,0.011,0.011,0.015,-0.496,-0.858,-9.760,0.002,0.007,-9.811,253.713,-2.913,5.065,0.025,0.069,-0.077,0.028,0.075,-0.070,0.063,0.062,0.075,0.130,0.130,0.047,0.098,0.098,0.175,0.028,,,,
2022-10-29,12:57:23.350,15.000,45.96110078,-66.62690556,-20.565,0.112,0.004,-0.015,0.035,0.013,0.008,0.015,-0.499,-0.860,-9.756,-0.001,0.005,-9.806,253.698,-2.913,5.067,-0.079,0.133,-0.086,-0.075,0.140,-0.078,0.062,0.062,0.074,0.126,0.126,0.047,0.099,0.098,0.175,0.028,,,,
2022-10-29,12:57:24.350,16.000,45.96110080,-66.62690555,-20.566,0.116,0.005,-0.014,0.035,0.012,0.009,0.015,-0.492,-0.864,-9.751,0.006,0.000,-9.802,253.689,-2.913,5.062,-0.155,-0.135,0.209,-0.165,-0.153,0.188,0.063,0.063,0.075,0.130,0.130,0.047,0.098,0.098,0.175,0.028,,,,
2022-10-29,12:57:25.350,17.000,45.96110081,-66.62690553,-20.567,0.120,0.005,-0.011,0.035,0.009,0.008,0.012,-0.499,-0.863,-9.752,-0.000,0.001,-9.803,253.707,-2.915,5.062,-0.111,-0.120,-0.166,-0.102,-0.105,-0.181,0.063,0.062,0.075,0.130,0.130,0.047,0.099,0.098,0.175,0.028,,,,
2022-10-29,12:57:26.350,18.000,45.96110079,-66.62690549,-20.567,0.123,-0.000,-0.007,0.035,0.007,0.002,0.007,-0.497,-0.867,-9.759,0.001,-0.003,-9.810,253.721,-2.910,5.059,-0.300,0.092,0.149,-0.308,0.079,0.141,0.063,0.063,0.075,0.130,0.130,0.047,0.098,0.097,0.175,0.028,,,,
2022-10-29,12:57:27.350,19.000,45.96110077,-66.62690545,-20.568,0.125,-0.006,-0.003,0.034,0.005,-0.005,0.007,-0.493,-0.866,-9.750,0.005,-0.003,-9.800,253.707,-2.910,5.060,-0.111,-0.298,0.025,-0.111,-0.299,-0.007,0.063,0.063,0.075,0.130,0.130,0.047,0.097,0.097,0.174,0.028,,,,
2022-10-29,12:57:28.350,20.000,45.96110073,-66.62690544,-20.566,0.127,-0.010,-0.001,0.033,0.004,-0.010,0.010,-0.490,-0.867,-9.754,0.007,-0.003,-9.805,253.692,-2.907,5.061,0.138,0.053,0.213,0.127,0.034,0.224,0.063,0.062,0.075,0.126,0.126,0.047,0.097,0.097,0.174,0.026,,,,
2022-10-29,12:57:29.350,21.000,45.96110071,-66.62690540,-20.566,0.130,-0.011,0.001,0.033,0.002,-0.011,0.011,-0.499,-0.873,-9.769,-0.001,-0.008,-9.821,253.687,-2.906,5.059,-0.266,0.299,0.044,-0.270,0.294,0.057,0.062,0.062,0.074,0.126,0.126,0.047,0.097,0.097,0.174,0.026,,,,
2022-10-29,12:57:30.350,22.000,45.96110069,-66.62690538,-20.565,0.133,-0.010,0.003,0.033,0.000,-0.010,0.010,-0.482,-0.861,-9.744,0.015,0.002,-9.793,253.673,-2.909,5.064,0.387,-0.320,0.315,0.372,-0.347,0.305,0.063,0.063,0.075,0.130,0.130,0.047,0.097,0.097,0.174,0.026,,,,
2022-10-29,12:57:31.350,23.000,45.96110069,-66.62690540,-20.566,0.136,-0.007,-0.003,0.032,0.004,-0.006,0.007,-0.499,-0.869,-9.760,-0.001,-0.003,-9.811,253.644,-2.914,5.068,-0.117,0.131,0.065,-0.121,0.124,0.070,0.063,0.062,0.075,0.126,0.126,0.047,0.097,0.096,0.174,0.026,,,,
2022-10-29,12:57:32.350,24.000,45.96110071,-66.62690546,-20.567,0.138,-0.001,-0.013,0.032,0.012,0.002,0.013,-0.498,-0.864,-9.769,0.002,0.003,-9.819,253.627,-2.917,5.072,0.139,-0.074,0.033,0.138,-0.077,0.034,0.062,0.062,0.074,0.126,0.126,0.047,0.097,0.097,0.174,0.024,,,,
2022-10-29,12:57:33.350,25.000,45.96110077,-66.62690549,-20.567,0.143,0.010,-0.017,0.031,0.014,0.015,0.020,-0.492,-0.862,-9.747,0.006,0.004,-9.798,253.633,-2.913,5.078,-0.044,-0.142,-0.072,-0.040,-0.135,-0.086,0.063,0.063,0.075,0.130,0.130,0.047,0.096,0.096,0.174,0.024,,,,
2022-10-29,12:57:34.350,26.000,45.96110080,-66.62690549,-20.568,0.149,0.020,-0.017,0.031,0.010,0.024,0.026,-0.508,-0.860,-9.778,-0.010,0.009,-9.829,253.646,-2.906,5.080,0.013,0.454,-0.019,0.012,0.454,0.022,0.063,0.062,0.075,0.126,0.126,0.047,0.096,0.096,0.173,0.024,,,,
2022-10-29,12:57:35.350,27.000,45.96110082,-66.62690549,-20.567,0.157,0.024,-0.015,0.030,0.008,0.028,0.029,-0.491,-0.871,-9.758,0.006,-0.004,-9.809,253.653,-2.905,5.080,-0.231,0.081,0.358,-0.250,0.049,0.351,0.062,0.062,0.074,0.126,0.126,0.047,0.096,0.096,0.174,0.024,,,,
2022-10-29,12:57:36.350,28.000,45.96110083,-66.62690549,-20.566,0.165,0.029,-0.014,0.030,0.005,0.031,0.032,-0.498,-0.864,-9.771,0.000,0.006,-9.821,253.647,-2.907,5.084,0.155,0.124,0.042,0.152,0.120,0.060,0.063,0.063,0.075,0.126,0.126,0.047,0.096,0.095,0.173,0.022,,,,
2022-10-29,12:57:37.350,29.000,45.96110086,-66.62690552,-20.565,0.175,0.033,-0.016,0.030,0.006,0.037,0.037,-0.491,-0.871,-9.759,0.007,-0.002,-9.810,253.650,-2.908,5.087,-0.014,0.034,0.414,-0.035,-0.002,0.414,0.063,0.062,0.075,0.126,0.126,0.047,0.096,0.096,0.174,0.022,,,,
2022-10-29,12:57:38.350,30.000,45.96110090,-66.62690552,-20.564,0.186,0.042,-0.016,0.029,0.004,0.045,0.045,-0.498,-0.864,-9.755,-0.001,0.006,-9.806,253.650,-2.905,5.092,-0.065,0.085,-0.198,-0.056,0.103,-0.193,0.063,0.063,0.075,0.126,0.126,0.047,0.096,0.095,0.173,0.022,,,,
2022-10-29,12:57:39.350,31.000,45.96110094,-66.62690552,-20.563,0.200,0.049,-0.017,0.028,0.003,0.051,0.051,-0.491,-0.862,-9.756,0.006,0.007,-9.807,253.670,-2.906,5.090,0.097,-0.012,0.158,0.089,-0.026,0.161,0.063,0.063,0.075,0.126,0.126,0.047,0.095,0.095,0.173,0.022,,,,
2022-10-29,12:57:40.350,32.000,45.96110093,-66.62690551,-20.562,0.214,0.045,-0.015,0.028,0.002,0.048,0.048,-0.492,-0.868,-9.757,0.006,-0.000,-9.808,253.693,-2.906,5.084,-0.061,0.120,0.158,-0.069,0.105,0.165,0.062,0.062,0.075,0.126,0.126,0.047,0.095,0.095,0.173,0.022,,,,
2022-10-29,12:57:41.350,33.000,45.96110090,-66.62690551,-20.561,0.226,0.037,-0.013,0.028,0.002,0.039,0.039,-0.494,-0.861,-9.759,0.004,0.007,-9.809,253.702,-2.909,5.079,0.198,-0.041,0.016,0.197,-0.042,0.022,0.062,0.062,0.074,0.126,0.126,0.047,0.095,0.095,0.173,0.022,,,,
2022-10-29,12:57:42.350,34.000,45.96110091,-66.62690551,-20.561,0.237,0.033,-0.013,0.027,0.003,0.035,0.035,-0.481,-0.865,-9.737,0.016,-0.000,-9.787,253.701,-2.907,5.076,0.012,-0.420,0.403,-0.006,-0.454,0.364,0.063,0.063,0.075,0.126,0.126,0.047,0.095,0.095,0.172,0.020,,,,
2022-10-29,12:57:43.350,35.000,45.96110092,-66.62690550,-20.561,0.246,0.032,-0.011,0.027,0.002,0.034,0.034,-0.499,-0.865,-9.754,-0.002,0.001,-9.805,253.707,-2.908,5.073,-0.077,-0.114,-0.174,-0.067,-0.098,-0.187,0.063,0.062,0.075,0.126,0.126,0.047,0.095,0.094,0.172,0.020,,,,
2022-10-29,12:57:44.350,36.000,45.96110092,-66.62690548,-20.562,0.255,0.027,-0.008,0.026,-0.000,0.028,0.028,-0.488,-0.871,-9.744,0.008,-0.007,-9.795,253.717,-2.905,5.067,-0.130,-0.088,0.280,-0.144,-0.113,0.264,0.062,0.062,0.074,0.126,0.126,0.047,0.095,0.094,0.172,0.020,,,,
2022-10-29,12:57:45.350,37.000,45.96110090,-66.62690546,-20.563,0.262,0.018,-0.004,0.025,-0.001,0.018,0.018,-0.496,-0.856,-9.753,0.001,0.007,-9.803,253.706,-2.906,5.060,0.267,-0.196,-0.002,0.268,-0.195,-0.006,0.063,0.063,0.075,0.126,0.126,0.047,0.094,0.093,0.172,0.020,,,,
2022-10-29,12:57:46.350,38.000,45.96110084,-66.62690546,-20.565,0.264,0.001,-0.000,0.025,0.000,0.001,0.001,-0.497,-0.858,-9.759,-0.000,0.005,-9.809,253.691,-2.905,5.051,0.139,-0.096,0.056,0.136,-0.100,0.054,0.062,0.062,0.075,0.126,0.126,0.047,0.093,0.093,0.172,0.020,,,,
2022-10-29,12:57:47.350,39.000,45.96110078,-66.62690544,-20.566,0.266,-0.013,0.004,0.025,0.000,-0.014,0.014,-0.497,-0.860,-9.749,-0.001,0.001,-9.799,253.697,-2.903,5.050,0.010,-0.150,-0.158,0.019,-0.136,-0.170,0.062,0.062,0.074,0.126,0.126,0.047,0.094,0.093,0.172,0.020,,,,
2022-10-29,12:57:48.350,40.000,45.96110073,-66.62690543,-20.567,0.271,-0.022,0.006,0.024,-0.000,-0.023,0.023,-0.499,-0.861,-9.757,-0.002,0.002,-9.807,253.711,-2.904,5.052,0.116,-0.046,-0.217,0.127,-0.027,-0.214,0.063,0.063,0.075,0.126,0.126,0.047,0.093,0.093,0.172,0.020,,,,
2022-10-29,12:57:49.350,41.000,45.96110070,-66.62690542,-20.566,0.278,-0.024,0.008,0.024,-0.000,-0.026,0.026,-0.493,-0.868,-9.757,0.004,-0.005,-9.807,253.712,-2.903,5.055,-0.113,0.083,0.043,-0.116,0.078,0.044,0.063,0.062,0.075,0.126,0.126,0.047,0.093,0.093,0.172,0.020,,,,
2022-10-29,12:57:50.350,42.000,45.96110072,-66.62690544,-20.564,0.284,-0.015,0.005,0.025,-0.001,-0.016,0.016,-0.493,-0.867,-9.757,0.003,-0.003,-9.808,253.722,-2.900,5.063,0.002,0.151,0.197,-0.009,0.133,0.209,0.063,0.063,0.075,0.126,0.126,0.047,0.093,0.093,0.172,0.020,,,,
2022-10-29,12:57:51.350,43.000,45.96110076,-66.62690543,-20.563,0.287,-0.004,0.005,0.023,-0.003,-0.005,0.006,-0.497,-0.870,-9.760,-0.000,-0.004,-9.811,253.727,-2.903,5.066,-0.105,0.158,0.093,-0.110,0.149,0.101,0.063,0.062,0.075,0.126,0.126,0.047,0.093,0.092,0.172,0.020,,,,
2022-10-29,12:57:52.350,44.000,45.96110078,-66.62690543,-20.561,0.288,0.006,0.001,0.023,-0.003,0.005,0.006,-0.499,-0.864,-9.754,-0.002,0.002,-9.805,253.719,-2.909,5.072,-0.258,-0.140,-0.191,-0.248,-0.123,-0.216,0.062,0.062,0.075,0.126,0.126,0.047,0.092,0.092,0.171,0.020,,,,
2022-10-29,12:57:53.350,45.000,45.96110081,-66.62690543,-20.560,0.291,0.015,-0.004,0.023,-0.000,0.016,0.016,-0.487,-0.873,-9.748,0.011,-0.007,-9.800,253.713,-2.908,5.079,-0.100,0.076,0.292,-0.115,0.050,0.292,0.062,0.062,0.074,0.122,0.122,0.047,0.093,0.092,0.172,0.020,,,,
2022-10-29,12:57:54.350,46.000,45.96110085,-66.62690548,-20.559,0.297,0.022,-0.011,0.023,0.004,0.024,0.025,-0.487,-0.865,-9.747,0.011,0.001,-9.797,253.721,-2.914,5.077,-0.006,-0.325,0.113,-0.010,-0.334,0.083,0.063,0.062,0.075,0.126,0.126,0.047,0.092,0.092,0.171,0.020,,,,
2022-10-29,12:57:55.350,47.000,45.96110088,-66.62690555,-20.558,0.305,0.025,-0.021,0.023,0.013,0.030,0.033,-0.492,-0.855,-9.762,0.008,0.013,-9.811,253.737,-2.919,5.077,0.154,-0.187,-0.028,0.156,-0.184,-0.036,0.062,0.062,0.075,0.126,0.126,0.047,0.093,0.092,0.172,0.018,,,,
2022-10-29,12:57:56.350,48.000,45.96110091,-66.62690560,-20.558,0.315,0.028,-0.028,0.022,0.019,0.034,0.039,-0.502,-0.862,-9.761,-0.003,0.005,-9.812,253.739,-2.914,5.078,0.024,0.273,0.084,0.019,0.265,0.109,0.063,0.063,0.075,0.126,0.126,0.047,0.092,0.092,0.171,0.018,,,,
2022-10-29,12:57:57.350,49.000,45.96110092,-66.62690563,-20.557,0.326,0.026,-0.031,0.022,0.022,0.034,0.040,-0.484,-0.871,-9.739,0.015,-0.007,-9.790,253.749,-2.921,5.071,-0.332,-0.343,0.234,-0.342,-0.362,0.185,0.063,0.062,0.075,0.126,0.126,0.047,0.092,0.091,0.171,0.018,,,,
2022-10-29,12:57:58.350,50.000,45.96110092,-66.62690562,-20.557,0.337,0.021,-0.030,0.022,0.023,0.028,0.036,-0.502,-0.857,-9.751,-0.003,0.008,-9.802,253.768,-2.919,5.071,0.065,-0.026,-0.169,0.073,-0.011,-0.167,0.062,0.062,0.075,0.122,0.122,0.047,0.091,0.091,0.171,0.018,,,,
2022-10-29,12:57:59.350,51.000,45.96110089,-66.62690560,-20.555,0.346,0.013,-0.025,0.022,0.021,0.019,0.028,-0.503,-0.853,-9.768,-0.004,0.013,-9.818,253.772,-2.916,5.067,0.184,0.025,-0.217,0.195,0.044,-0.204,0.062,0.062,0.074,0.122,0.122,0.047,0.092,0.091,0.172,0.018,,,,
2022-10-29,12:58:00.350,52.000,45.96110081,-66.62690556,-20.553,0.353,0.000,-0.021,0.022,0.020,0.006,0.021,-0.497,-0.863,-9.757,0.002,0.001,-9.808,253.768,-2.914,5.060,-0.160,0.077,0.097,-0.165,0.068,0.095,0.063,0.062,0.075,0.122,0.122,0.047,0.091,0.091,0.172,0.018,,,,
2022-10-29,12:58:01.350,53.000,45.96110075,-66.62690552,-20.552,0.358,-0.011,-0.013,0.021,0.016,-0.007,0.017,-0.497,-0.866,-9.763,0.001,-0.001,-9.814,253.748,-2.909,5.060,-0.019,0.189,0.003,-0.020,0.188,0.019,0.062,0.062,0.075,0.122,0.122,0.047,0.091,0.091,0.171,0.016,,,,
2022-10-29,12:58:02.350,54.000,45.96110072,-66.62690546,-20.551,0.362,-0.012,-0.005,0.021,0.008,-0.010,0.013,-0.495,-0.864,-9.749,0.001,-0.000,-9.799,253.747,-2.905,5.064,-0.014,0.045,0.043,-0.017,0.041,0.046,0.062,0.062,0.074,0.122,0.122,0.047,0.091,0.091,0.172,0.016,,,,
2022-10-29,12:58:03.350,55.000,45.96110073,-66.62690541,-20.551,0.365,-0.005,0.001,0.020,0.000,-0.005,0.006,-0.500,-0.863,-9.762,-0.003,0.003,-9.813,253.742,-2.904,5.068,0.146,0.044,0.014,0.144,0.043,0.025,0.063,0.062,0.075,0.122,0.122,0.047,0.091,0.090,0.171,0.016,,,,
2022-10-29,12:58:04.350,56.000,45.96110077,-66.62690542,-20.551,0.366,0.004,0.001,0.020,-0.002,0.004,0.004,-0.496,-0.865,-9.747,0.000,-0.000,-9.798,253.740,-2.903,5.070,0.004,-0.363,-0.174,0.014,-0.346,-0.205,0.062,0.062,0.075,0.122,0.122,0.047,0.090,0.090,0.171,0.016,,,,
2022-10-29,12:58:05.350,57.000,45.96110083,-66.62690542,-20.551,0.368,0.015,0.001,0.019,-0.006,0.014,0.015,-0.494,-0.860,-9.758,0.002,0.006,-9.809,253.737,-2.899,5.071,0.180,0.132,0.104,0.174,0.123,0.124,0.062,0.062,0.074,0.122,0.122,0.047,0.091,0.090,0.171,0.016,,,,
2022-10-29,12:58:06.350,58.000,45.96110086,-66.62690546,-20.552,0.373,0.019,-0.001,0.019,-0.004,0.019,0.019,-0.495,-0.864,-9.748,0.002,0.001,-9.799,253.729,-2.903,5.070,0.052,-0.184,-0.051,0.055,-0.179,-0.064,0.063,0.062,0.075,0.122,0.122,0.047,0.090,0.089,0.171,0.016,,,,
2022-10-29,12:58:07.350,59.000,45.96110086,-66.62690550,-20.552,0.378,0.016,-0.005,0.018,0.000,0.017,0.017,-0.499,-0.861,-9.749,-0.002,0.003,-9.800,253.727,-2.907,5.067,-0.009,-0.141,-0.193,0.002,-0.123,-0.205,0.062,0.062,0.075,0.122,0.122,0.047,0.089,0.089,0.171,0.016,,,,
2022-10-29,12:58:08.350,60.000,45.96110084,-66.62690551,-20.552,0.382,0.009,-0.006,0.018,0.004,0.011,0.011,-0.504,-0.860,-9.765,-0.007,0.006,-9.816,253.728,-2.906,5.064,-0.006,0.196,-0.215,0.004,0.214,-0.197,0.062,0.062,0.074,0.122,0.122,0.047,0.090,0.089,0.171,0.016,,,,
2022-10-29,12:58:09.350,61.000,45.96110081,-66.62690551,-20.551,0.384,0.001,-0.007,0.018,0.006,0.003,0.007,-0.491,-0.869,-9.758,0.007,-0.005,-9.809,253.714,-2.912,5.059,-0.048,-0.191,0.202,-0.057,-0.208,0.181,0.063,0.062,0.075,0.122,0.122,0.047,0.089,0.089,0.170,0.016,,,,
2022-10-29,12:58:10.350,62.000,45.96110079,-66.62690550,-20.550,0.386,-0.003,-0.007,0.018,0.007,-0.000,0.007,-0.491,-0.868,-9.745,0.007,-0.005,-9.796,253.707,-2.911,5.064,-0.190,-0.130,0.071,-0.192,-0.136,0.050,0.062,0.062,0.075,0.122,0.122,0.047,0.089,0.089,0.170,0.016,,,,
2022-10-29,12:58:11.350,63.000,45.96110081,-66.62690549,-20.550,0.388,0.001,-0.007,0.017,0.006,0.003,0.007,-0.491,-0.868,-9.755,0.008,-0.003,-9.806,253.704,-2.912,5.070,-0.167,-0.103,0.377,-0.185,-0.135,0.358,0.062,0.062,0.074,0.122,0.122,0.047,0.089,0.089,0.170,0.016,,,,
2022-10-29,12:58:12.350,64.000,45.96110084,-66.62690548,-20.551,0.391,0.010,-0.008,0.017,0.004,0.012,0.013,-0.495,-0.862,-9.755,0.002,0.004,-9.806,253.697,-2.909,5.075,0.002,0.062,-0.091,0.007,0.070,-0.085,0.062,0.062,0.075,0.122,0.122,0.047,0.089,0.089,0.170,0.016,,,,
2022-10-29,12:58:13.350,65.000,45.96110087,-66.62690552,-20.551,0.396,0.018,-0.012,0.016,0.006,0.020,0.021,-0.503,-0.855,-9.767,-0.004,0.012,-9.817,253.689,-2.910,5.076,0.044,-0.015,-0.080,0.048,-0.008,-0.078,0.062,0.062,0.075,0.122,0.122,0.047,0.089,0.089,0.170,0.016,,,,
2022-10-29,12:58:14.350,66.000,45.96110090,-66.62690554,-20.553,0.403,0.023,-0.016,0.016,0.009,0.027,0.028,-0.498,-0.858,-9.761,-0.000,0.009,-9.811,253.673,-2.910,5.079,0.309,0.031,-0.105,0.314,0.040,-0.086,0.063,0.062,0.075,0.122,0.122,0.047,0.089,0.088,0.170,0.016,,,,
2022-10-29,12:58:15.350,67.000,45.96110091,-66.62690555,-20.554,0.411,0.026,-0.017,0.016,0.009,0.030,0.031,-0.497,-0.869,-9.745,0.000,-0.003,-9.796,253.668,-2.906,5.078,-0.099,-0.013,-0.112,-0.093,-0.003,-0.118,0.062,0.062,0.075,0.122,0.122,0.047,0.088,0.088,0.170,0.016,,,,
2022-10-29,12:58:16.350,68.000,45.96110088,-66.62690555,-20.556,0.419,0.022,-0.015,0.016,0.009,0.026,0.027,-0.494,-0.863,-9.752,0.004,0.003,-9.803,253.675,-2.911,5.076,0.150,-0.093,-0.025,0.151,-0.090,-0.025,0.062,0.062,0.075,0.122,0.122,0.047,0.089,0.088,0.170,0.016,,,,
2022-10-29,12:58:17.350,69.000,45.96110083,-66.62690555,-20.556,0.426,0.013,-0.015,0.015,0.010,0.017,0.020,-0.495,-0.859,-9.766,0.003,0.007,-9.816,253.683,-2.908,5.066,0.262,0.046,0.059,0.258,0.040,0.076,0.063,0.062,0.075,0.122,0.122,0.047,0.088,0.088,0.170,0.016,,,,
2022-10-29,12:58:18.350,70.000,45.96110078,-66.62690555,-20.555,0.430,0.000,-0.012,0.015,0.012,0.004,0.012,-0.495,-0.869,-9.757,0.003,-0.006,-9.808,253.683,-2.907,5.055,-0.258,0.097,0.127,-0.265,0.085,0.122,0.062,0.062,0.075,0.122,0.122,0.047,0.088,0.088,0.169,0.016,,,,
2022-10-29,12:58:19.350,71.000,45.96110075,-66.62690552,-20.553,0.433,-0.006,-0.006,0.015,0.007,-0.004,0.008,-0.501,-0.860,-9.745,-0.004,0.002,-9.796,253.688,-2.905,5.053,-0.344,-0.213,-0.252,-0.330,-0.190,-0.287,0.062,0.062,0.075,0.122,0.122,0.047,0.088,0.088,0.170,0.014,,,,
2022-10-29,12:58:20.350,72.000,45.96110077,-66.62690548,-20.552,0.435,-0.004,0.001,0.014,0.000,-0.004,0.004,-0.486,-0.868,-9.755,0.010,-0.004,-9.805,253.686,-2.902,5.060,0.093,0.045,0.184,0.083,0.028,0.192,0.063,0.062,0.075,0.122,0.122,0.047,0.088,0.087,0.169,0.014,,,,
2022-10-29,12:58:21.350,73.000,45.96110078,-66.62690544,-20.552,0.436,-0.000,0.005,0.014,-0.005,-0.002,0.005,-0.496,-0.861,-9.753,-0.000,0.002,-9.804,253.691,-2.901,5.058,0.029,-0.101,-0.066,0.032,-0.095,-0.074,0.062,0.062,0.075,0.122,0.122,0.047,0.087,0.087,0.169,0.014,,,,
2022-10-29,12:58:22.350,74.000,45.96110081,-66.62690539,-20.554,0.438,0.004,0.010,0.014,-0.011,0.001,0.011,-0.498,-0.865,-9.750,-0.003,-0.001,-9.801,253.706,-2.898,5.063,0.054,0.040,0.135,0.047,0.028,0.141,0.062,0.062,0.075,0.122,0.122,0.047,0.088,0.087,0.169,0.014,,,,
2022-10-29,12:58:23.350,75.000,45.96110082,-66.62690538,-20.554,0.441,0.008,0.010,0.014,-0.012,0.005,0.013,-0.496,-0.863,-9.754,-0.000,0.002,-9.804,253.705,-2.900,5.065,0.050,-0.128,-0.104,0.056,-0.118,-0.112,0.063,0.062,0.075,0.122,0.122,0.047,0.087,0.087,0.169,0.014,,,,
2022-10-29,12:58:24.350,76.000,45.96110081,-66.62690538,-20.553,0.445,0.009,0.008,0.013,-0.010,0.006,0.012,-0.505,-0.865,-9.773,-0.008,0.001,-9.824,253.702,-2.902,5.067,0.113,0.366,-0.031,0.113,0.367,0.007,0.062,0.062,0.075,0.122,0.122,0.047,0.087,0.087,0.168,0.014,,,,
2022-10-29,12:58:25.350,77.000,45.96110082,-66.62690539,-20.552,0.448,0.014,0.004,0.013,-0.008,0.012,0.014,-0.496,-0.860,-9.755,0.001,0.006,-9.806,253.688,-2.904,5.073,-0.119,-0.257,0.062,-0.120,-0.262,0.033,0.062,0.062,0.075,0.119,0.119,0.047,0.087,0.087,0.169,0.014,,,,
2022-10-29,12:58:26.350,78.000,45.96110082,-66.62690543,-20.550,0.453,0.018,-0.003,0.013,-0.003,0.018,0.018,-0.491,-0.860,-9.757,0.007,0.007,-9.807,253.679,-2.910,5.075,0.258,-0.248,-0.023,0.260,-0.245,-0.032,0.063,0.062,0.075,0.122,0.122,0.047,0.087,0.086,0.168,0.014,,,,
2022-10-29,12:58:27.350,79.000,45.96110083,-66.62690546,-20.549,0.458,0.021,-0.009,0.012,0.003,0.022,0.022,-0.485,-0.866,-9.751,0.012,0.000,-9.801,253.680,-2.909,5.079,0.052,-0.064,0.325,0.035,-0.092,0.321,0.062,0.062,0.075,0.119,0.119,0.047,0.087,0.086,0.168,0.014,,,,
2022-10-29,12:58:28.350,80.000,45.96110084,-66.62690548,-20.548,0.466,0.025,-0.015,0.012,0.008,0.029,0.030,-0.490,-0.863,-9.755,0.009,0.005,-9.806,253.685,-2.913,5.081,0.139,-0.100,0.229,0.127,-0.120,0.226,0.062,0.062,0.075,0.119,0.119,0.047,0.086,0.085,0.168,0.014,,,,
2022-10-29,12:58:29.350,81.000,45.96110086,-66.62690552,-20.546,0.475,0.030,-0.022,0.011,0.013,0.034,0.037,-0.491,-0.864,-9.749,0.007,0.002,-9.800,253.690,-2.916,5.079,-0.034,-0.245,0.024,-0.034,-0.246,0.001,0.062,0.062,0.074,0.119,0.119,0.047,0.086,0.086,0.168,0.014,,,,
2022-10-29,12:58:30.350,82.000,45.96110084,-66.62690556,-20.546,0.485,0.028,-0.026,0.012,0.017,0.034,0.038,-0.490,-0.870,-9.753,0.009,-0.004,-9.804,253.694,-2.916,5.076,-0.144,-0.210,-0.029,-0.141,-0.206,-0.055,0.062,0.062,0.075,0.119,0.119,0.047,0.086,0.085,0.168,0.014,,,,
2022-10-29,12:58:31.350,83.000,45.96110083,-66.62690561,-20.545,0.496,0.025,-0.028,0.012,0.020,0.032,0.038,-0.503,-0.863,-9.767,-0.004,0.004,-9.818,253.700,-2.912,5.072,-0.225,0.115,0.017,-0.226,0.113,0.016,0.062,0.062,0.075,0.119,0.119,0.047,0.085,0.085,0.168,0.014,,,,
2022-10-29,12:58:32.350,84.000,45.96110084,-66.62690563,-20.546,0.506,0.024,-0.026,0.012,0.018,0.031,0.036,-0.493,-0.861,-9.757,0.005,0.006,-9.807,253.701,-2.907,5.076,0.140,-0.074,0.122,0.134,-0.084,0.122,0.062,0.062,0.074,0.119,0.119,0.047,0.085,0.085,0.168,0.014,,,,
2022-10-29,12:58:33.350,85.000,45.96110084,-66.62690561,-20.547,0.516,0.027,-0.019,0.011,0.010,0.032,0.033,-0.495,-0.871,-9.761,0.002,-0.003,-9.812,253.713,-2.899,5.079,-0.094,0.281,0.016,-0.096,0.278,0.036,0.062,0.062,0.075,0.119,0.119,0.047,0.085,0.085,0.168,0.014,,,,
2022-10-29,12:58:34.350,86.000,45.96110083,-66.62690558,-20.549,0.524,0.027,-0.010,0.012,0.003,0.028,0.029,-0.498,-0.869,-9.754,-0.003,-0.002,-9.805,253.725,-2.896,5.076,-0.129,0.197,-0.112,-0.124,0.206,-0.100,0.062,0.062,0.075,0.119,0.119,0.047,0.085,0.084,0.168,0.014,,,,
2022-10-29,12:58:35.350,87.000,45.96110081,-66.62690553,-20.549,0.531,0.023,-0.002,0.012,-0.004,0.023,0.023,-0.488,-0.858,-9.745,0.007,0.007,-9.795,253.738,-2.896,5.069,0.169,-0.292,0.056,0.167,-0.295,0.038,0.062,0.062,0.074,0.119,0.119,0.047,0.085,0.085,0.168,0.014,,,,
2022-10-29,12:58:36.350,88.000,45.96110078,-66.62690546,-20.549,0.537,0.018,0.008,0.011,-0.012,0.015,0.020,-0.496,-0.870,-9.745,-0.002,-0.006,-9.797,253.751,-2.892,5.065,-0.421,-0.026,-0.005,-0.420,-0.025,-0.028,0.062,0.062,0.075,0.119,0.119,0.047,0.085,0.084,0.167,0.014,,,,
2022-10-29,12:58:37.350,89.000,45.96110074,-66.62690538,-20.549,0.543,0.011,0.017,0.012,-0.020,0.006,0.020,-0.488,-0.870,-9.745,0.007,-0.007,-9.796,253.749,-2.894,5.057,-0.099,-0.128,0.174,-0.107,-0.143,0.157,0.062,0.062,0.075,0.119,0.119,0.047,0.084,0.084,0.167,0.012,,,,
2022-10-29,12:58:38.350,90.000,45.96110071,-66.62690531,-20.550,0.549,0.002,0.023,0.011,-0.023,-0.004,0.023,-0.491,-0.872,-9.753,0.004,-0.010,-9.804,253.739,-2.895,5.052,-0.214,0.012,0.210,-0.225,-0.006,0.199,0.062,0.062,0.074,0.119,0.119,0.047,0.085,0.084,0.167,0.012,,,,
2022-10-29,12:58:39.350,91.000,45.96110068,-66.62690531,-20.550,0.556,-0.005,0.022,0.011,-0.020,-0.011,0.023,-0.496,-0.855,-9.759,-0.000,0.007,-9.809,253.732,-2.899,5.051,0.345,-0.057,-0.110,0.350,-0.047,-0.097,0.062,0.062,0.075,0.119,0.119,0.047,0.084,0.084,0.167,0.012,,,,
2022-10-29,12:58:40.350,92.000,45.96110068,-66.62690532,-20.551,0.561,-0.009,0.017,0.011,-0.014,-0.013,0.019,-0.495,-0.862,-9.759,0.002,0.000,-9.809,253.729,-2.903,5.049,-0.056,0.006,0.021,-0.057,0.004,0.019,0.062,0.062,0.075,0.119,0.119,0.047,0.084,0.084,0.167,0.012,,,,
2022-10-29,12:58:41.350,93.000,45.96110067,-66.62690535,-20.552,0.566,-0.011,0.012,0.010,-0.008,-0.014,0.016,-0.496,-0.857,-9.774,0.001,0.007,-9.824,253.719,-2.903,5.050,0.377,0.138,-0.042,0.378,0.141,-0.011,0.062,0.062,0.074,0.119,0.119,0.047,0.084,0.084,0.167,0.010,,,,
2022-10-29,12:58:42.350,94.000,45.96110068,-66.62690541,-20.554,0.570,-0.011,0.004,0.010,-0.000,-0.012,0.012,-0.490,-0.858,-9.750,0.007,0.005,-9.799,253.726,-2.910,5.058,0.315,-0.313,0.061,0.313,-0.318,0.049,0.062,0.062,0.075,0.119,0.119,0.047,0.084,0.083,0.167,0.010,,,,
2022-10-29,12:58:43.350,95.000,45.96110068,-66.62690548,-20.555,0.574,-0.010,-0.005,0.010,0.008,-0.008,0.011,-0.491,-0.869,-9.739,0.006,-0.006,-9.790,253.735,-2.910,5.059,-0.270,-0.218,-0.080,-0.265,-0.210,-0.112,0.062,0.062,0.075,0.119,0.119,0.047,0.083,0.083,0.167,0.010,,,,
2022-10-29,12:58:44.350,96.000,45.96110072,-66.62690555,-20.556,0.577,-0.001,-0.013,0.010,0.013,0.003,0.013,-0.490,-0.862,-9.746,0.007,0.002,-9.797,253.739,-2.910,5.066,-0.033,-0.374,-0.136,-0.024,-0.361,-0.170,0.062,0.062,0.074,0.119,0.119,0.047,0.084,0.083,0.167,0.010,,,,
2022-10-29,12:58:45.350,97.000,45.96110075,-66.62690554,-20.557,0.581,0.009,-0.013,0.009,0.010,0.012,0.015,-0.491,-0.863,-9.737,0.006,0.001,-9.788,253.736,-2.907,5.070,-0.033,-0.225,-0.113,-0.026,-0.214,-0.134,0.062,0.062,0.075,0.119,0.119,0.047,0.083,0.083,0.167,0.010,,,,
2022-10-29,12:58:46.350,98.000,45.96110078,-66.62690554,-20.557,0.585,0.015,-0.010,0.009,0.006,0.018,0.019,-0.493,-0.866,-9.764,0.003,0.001,-9.814,253.738,-2.901,5.073,-0.092,0.201,0.264,-0.106,0.177,0.276,0.062,0.062,0.075,0.119,0.119,0.047,0.083,0.083,0.167,0.010,,,,
2022-10-29,12:58:47.350,99.000,45.96110082,-66.62690555,-20.555,0.591,0.023,-0.010,0.010,0.003,0.025,0.025,-0.494,-0.865,-9.753,0.002,0.001,-9.803,253.748,-2.901,5.075,0.045,-0.286,-0.022,0.047,-0.283,-0.045,0.062,0.062,0.075,0.119,0.119,0.047,0.083,0.083,0.167,0.008,,,,
2022-10-29,12:58:48.350,100.000,45.96110083,-66.62690554,-20.555,0.599,0.027,-0.008,0.009,0.000,0.028,0.028,-0.502,-0.863,-9.765,-0.006,0.004,-9.816,253.757,-2.900,5.074,0.115,0.497,-0.020,0.114,0.497,0.030,0.062,0.062,0.075,0.119,0.119,0.047,0.083,0.083,0.167,0.008,,,,
2022-10-29,12:58:49.350,101.000,45.96110082,-66.62690551,-20.556,0.607,0.026,-0.004,0.009,-0.004,0.026,0.026,-0.498,-0.862,-9.766,-0.002,0.005,-9.817,253.740,-2.896,5.074,0.130,0.217,-0.016,0.130,0.217,0.010,0.062,0.062,0.075,0.119,0.119,0.047,0.083,0.083,0.167,0.008,,,,
2022-10-29,12:58:50.350,102.000,45.96110080,-66.62690546,-20.555,0.613,0.023,0.003,0.009,-0.009,0.022,0.024,-0.492,-0.867,-9.762,0.004,-0.001,-9.812,253.729,-2.896,5.072,-0.109,0.223,0.194,-0.119,0.205,0.207,0.062,0.062,0.075,0.119,0.119,0.047,0.083,0.082,0.166,0.008,,,,
2022-10-29,12:58:51.350,103.000,45.96110080,-66.62690542,-20.555,0.620,0.024,0.006,0.008,-0.013,0.022,0.025,-0.496,-0.865,-9.763,0.001,0.002,-9.813,253.714,-2.898,5.073,-0.115,0.203,0.048,-0.118,0.198,0.060,0.062,0.062,0.075,0.119,0.119,0.047,0.082,0.082,0.166,0.008,,,,
2022-10-29,12:58:52.350,104.000,45.96110079,-66.62690541,-20.554,0.627,0.025,0.004,0.008,-0.011,0.023,0.025,-0.490,-0.869,-9.758,0.006,-0.003,-9.808,253.705,-2.902,5.072,-0.057,0.119,0.365,-0.076,0.086,0.371,0.062,0.062,0.075,0.115,0.115,0.047,0.083,0.082,0.166,0.008,,,,
2022-10-29,12:58:53.350,105.000,45.96110080,-66.62690543,-20.553,0.634,0.024,-0.003,0.008,-0.004,0.024,0.024,-0.502,-0.858,-9.752,-0.004,0.007,-9.802,253.696,-2.913,5.070,-0.100,-0.183,-0.256,-0.086,-0.159,-0.276,0.062,0.062,0.075,0.119,0.119,0.047,0.082,0.081,0.166,0.008,,,,
2022-10-29,12:58:54.350,106.000,45.96110078,-66.62690549,-20.552,0.641,0.018,-0.015,0.008,0.009,0.021,0.023,-0.486,-0.869,-9.745,0.012,-0.005,-9.796,253.690,-2.917,5.063,-0.349,-0.048,0.100,-0.353,-0.057,0.078,0.062,0.062,0.075,0.119,0.119,0.047,0.082,0.081,0.166,0.008,,,,
2022-10-29,12:58:55.350,107.000,45.96110074,-66.62690555,-20.551,0.647,0.008,-0.024,0.007,0.021,0.014,0.025,-0.491,-0.855,-9.755,0.008,0.009,-9.805,253.685,-2.918,5.060,0.156,-0.086,0.079,0.153,-0.093,0.079,0.062,0.062,0.074,0.115,0.115,0.047,0.081,0.081,0.166,0.008,,,,
2022-10-29,12:58:56.350,108.000,45.96110071,-66.62690562,-20.549,0.655,-0.001,-0.031,0.007,0.030,0.008,0.031,-0.496,-0.856,-9.765,0.003,0.009,-9.815,253.685,-2.920,5.058,0.150,0.026,-0.008,0.150,0.026,0.002,0.062,0.061,0.074,0.115,0.115,0.047,0.081,0.081,0.166,0.008,,,,
2022-10-29,12:58:57.350,109.000,45.96110068,-66.62690565,-20.548,0.664,-0.009,-0.034,0.007,0.035,0.001,0.035,-0.494,-0.863,-9.744,0.005,-0.001,-9.795,253.681,-2.922,5.052,-0.110,-0.111,-0.205,-0.099,-0.092,-0.219,0.062,0.062,0.075,0.115,0.115,0.047,0.081,0.081,0.166,0.008,,,,
2022-10-29,12:58:58.350,110.000,45.96110066,-66.62690563,-20.549,0.674,-0.014,-0.030,0.007,0.033,-0.005,0.033,-0.497,-0.862,-9.743,0.001,-0.001,-9.793,253.679,-2.916,5.050,-0.039,-0.151,-0.171,-0.030,-0.136,-0.186,0.062,0.062,0.074,0.115,0.115,0.047,0.081,0.081,0.166,0.008,,,,
2022-10-29,12:58:59.350,111.000,45.96110069,-66.62690561,-20.550,0.683,-0.012,-0.024,0.007,0.027,-0.005,0.027,-0.493,-0.862,-9.751,0.006,-0.000,-9.801,253.684,-2.913,5.051,0.028,-0.099,0.025,0.027,-0.100,0.018,0.062,0.062,0.075,0.119,0.119,0.047,0.081,0.081,0.166,0.008,,,,
2022-10-29,12:59:00.350,112.000,45.96110070,-66.62690556,-20.552,0.689,-0.011,-0.017,0.007,0.020,-0.006,0.021,-0.497,-0.860,-9.754,0.000,0.002,-9.804,253.677,-2.910,5.053,-0.127,-0.084,-0.334,-0.110,-0.054,-0.346,0.062,0.062,0.075,0.115,0.115,0.047,0.081,0.080,0.166,0.008,,,,
2022-10-29,12:59:01.350,113.000,45.96110070,-66.62690556,-20.553,0.694,-0.010,-0.013,0.007,0.016,-0.006,0.017,-0.493,-0.863,-9.753,0.004,-0.001,-9.803,253.681,-2.910,5.054,-0.004,-0.280,-0.023,-0.002,-0.276,-0.048,0.062,0.062,0.075,0.115,0.115,0.047,0.081,0.080,0.166,0.008,,,,
2022-10-29,12:59:02.350,114.000,45.96110069,-66.62690554,-20.554,0.699,-0.011,-0.011,0.006,0.013,-0.007,0.015,-0.487,-0.867,-9.742,0.010,-0.005,-9.792,253.680,-2.908,5.054,-0.056,-0.239,0.169,-0.064,-0.253,0.144,0.062,0.062,0.075,0.115,0.115,0.047,0.081,0.080,0.166,0.008,,,,
2022-10-29,12:59:03.350,115.000,45.96110067,-66.62690553,-20.554,0.703,-0.014,-0.008,0.005,0.011,-0.011,0.016,-0.499,-0.859,-9.763,-0.001,0.004,-9.814,253.671,-2.908,5.051,0.152,0.050,0.016,0.151,0.048,0.028,0.062,0.062,0.075,0.115,0.115,0.047,0.080,0.080,0.165,0.008,,,,
2022-10-29,12:59:04.350,116.000,45.96110067,-66.62690552,-20.553,0.708,-0.015,-0.008,0.005,0.012,-0.013,0.017,-0.490,-0.860,-9.745,0.008,0.002,-9.795,253.665,-2.911,5.053,0.136,-0.197,-0.109,0.142,-0.186,-0.119,0.062,0.062,0.075,0.115,0.115,0.047,0.080,0.080,0.165,0.008,,,,
2022-10-29,12:59:05.350,117.000,45.96110069,-66.62690550,-20.554,0.712,-0.013,-0.008,0.004,0.011,-0.010,0.015,-0.502,-0.868,-9.757,-0.004,-0.005,-9.809,253.664,-2.908,5.055,-0.473,0.144,-0.022,-0.472,0.146,-0.034,0.062,0.062,0.075,0.115,0.115,0.047,0.080,0.080,0.165,0.008,,,,
2022-10-29,12:59:06.350,118.000,45.96110072,-66.62690551,-20.554,0.716,-0.006,-0.009,0.004,0.010,-0.003,0.011,-0.493,-0.867,-9.753,0.005,-0.004,-9.804,253.663,-2.911,5.060,-0.160,-0.186,0.117,-0.165,-0.195,0.092,0.062,0.062,0.075,0.115,0.115,0.047,0.080,0.079,0.165,0.010,,,,
2022-10-29,12:59:07.350,119.000,45.96110076,-66.62690551,-20.555,0.718,0.002,-0.010,0.003,0.009,0.005,0.011,-0.501,-0.864,-9.767,-0.003,0.001,-9.818,253.664,-2.908,5.065,0.113,0.293,0.110,0.106,0.282,0.141,0.062,0.062,0.075,0.115,0.115,0.047,0.080,0.079,0.165,0.010,,,,
2022-10-29,12:59:08.350,120.000,45.96110076,-66.62690552,-20.553,0.722,0.007,-0.013,0.003,0.010,0.010,0.015,-0.499,-0.855,-9.760,-0.002,0.011,-9.810,253.657,-2.907,5.071,0.407,-0.007,-0.111,0.412,0.002,-0.090,0.061,0.061,0.074,0.115,0.115,0.047,0.080,0.079,0.165,0.010,,,,
2022-10-29,12:59:09.350,121.000,45.96110079,-66.62690551,-20.552,0.726,0.014,-0.012,0.004,0.008,0.016,0.018,-0.495,-0.865,-9.742,0.001,-0.001,-9.793,253.658,-2.904,5.069,-0.427,0.063,-0.276,-0.413,0.087,-0.290,0.062,0.062,0.075,0.115,0.115,0.047,0.079,0.079,0.164,0.010,,,,
2022-10-29,12:59:10.350,122.000,45.96110080,-66.62690551,-20.550,0.732,0.018,-0.010,0.003,0.005,0.020,0.021,-0.490,-0.870,-9.747,0.006,-0.004,-9.798,253.656,-2.902,5.072,-0.152,-0.287,-0.066,-0.147,-0.280,-0.099,0.062,0.061,0.075,0.115,0.115,0.047,0.079,0.078,0.164,0.012,,,,
2022-10-29,12:59:11.350,123.000,45.96110081,-66.62690551,-20.547,0.738,0.023,-0.008,0.002,0.001,0.024,0.024,-0.497,-0.862,-9.767,-0.001,0.005,-9.818,253.668,-2.896,5.074,0.194,0.248,0.057,0.189,0.242,0.088,0.061,0.061,0.074,0.115,0.115,0.047,0.079,0.078,0.164,0.012,,,,
2022-10-29,12:59:12.350,124.000,45.96110082,-66.62690551,-20.545,0.745,0.027,-0.004,0.003,-0.004,0.027,0.027,-0.487,-0.860,-9.747,0.008,0.005,-9.797,253.680,-2.897,5.075,0.210,-0.199,0.026,0.209,-0.200,0.019,0.062,0.062,0.075,0.115,0.115,0.047,0.079,0.078,0.164,0.012,,,,
2022-10-29,12:59:13.350,125.000,45.96110081,-66.62690547,-20.544,0.752,0.028,0.003,0.003,-0.010,0.026,0.028,-0.501,-0.858,-9.761,-0.005,0.009,-9.811,253.699,-2.897,5.073,0.109,-0.114,-0.237,0.121,-0.093,-0.240,0.062,0.061,0.075,0.115,0.115,0.047,0.078,0.078,0.164,0.012,,,,
2022-10-29,12:59:14.350,126.000,45.96110081,-66.62690543,-20.542,0.760,0.027,0.007,0.002,-0.014,0.024,0.028,-0.489,-0.864,-9.765,0.007,0.003,-9.815,253.715,-2.895,5.070,0.148,0.038,0.293,0.133,0.012,0.303,0.061,0.061,0.074,0.115,0.115,0.047,0.078,0.078,0.164,0.012,,,,
2022-10-29,12:59:15.350,127.000,45.96110081,-66.62690538,-20.541,0.768,0.024,0.012,0.002,-0.018,0.020,0.026,-0.494,-0.856,-9.761,0.002,0.009,-9.811,253.726,-2.899,5.062,0.113,0.017,-0.065,0.116,0.023,-0.058,0.062,0.062,0.075,0.115,0.115,0.047,0.078,0.078,0.164,0.012,,,,
2022-10-29,12:59:16.350,128.000,45.96110081,-66.62690542,-20.540,0.774,0.021,0.005,0.001,-0.011,0.018,0.021,-0.490,-0.868,-9.755,0.008,-0.003,-9.805,253.737,-2.907,5.064,-0.056,-0.002,0.388,-0.076,-0.037,0.383,0.062,0.061,0.075,0.115,0.115,0.047,0.078,0.078,0.164,0.014,,,,
2022-10-29,12:59:17.350,129.000,45.96110081,-66.62690549,-20.540,0.779,0.015,-0.006,0.001,0.002,0.017,0.017,-0.501,-0.850,-9.765,-0.002,0.015,-9.815,253.747,-2.915,5.064,0.264,-0.097,-0.104,0.269,-0.087,-0.098,0.062,0.062,0.075,0.115,0.115,0.047,0.078,0.078,0.164,0.014,,,,
2022-10-29,12:59:18.350,130.000,45.96110080,-66.62690557,-20.541,0.785,0.012,-0.021,0.001,0.016,0.017,0.024,-0.498,-0.856,-9.765,0.002,0.010,-9.815,253.744,-2.921,5.066,0.182,0.028,0.115,0.176,0.018,0.126,0.062,0.062,0.075,0.115,0.115,0.047,0.078,0.077,0.164,0.014,,,,
2022-10-29,12:59:19.350,131.000,45.96110083,-66.62690570,-20.541,0.794,0.013,-0.037,0.001,0.032,0.023,0.039,-0.496,-0.861,-9.766,0.005,0.005,-9.816,253.745,-2.925,5.070,0.090,0.015,0.046,0.087,0.011,0.052,0.062,0.061,0.075,0.115,0.115,0.047,0.078,0.077,0.164,0.014,,,,
2022-10-29,12:59:20.350,132.000,45.96110085,-66.62690581,-20.541,0.806,0.015,-0.049,0.001,0.043,0.029,0.051,-0.489,-0.865,-9.751,0.011,0.001,-9.801,253.741,-2.926,5.072,0.010,-0.158,0.292,-0.004,-0.183,0.277,0.062,0.062,0.075,0.115,0.115,0.047,0.078,0.077,0.164,0.014,,,,
2022-10-29,12:59:21.350,133.000,45.96110084,-66.62690582,-20.541,0.821,0.016,-0.049,0.001,0.043,0.029,0.051,-0.486,-0.866,-9.743,0.013,-0.002,-9.793,253.740,-2.920,5.072,-0.066,-0.293,0.273,-0.079,-0.316,0.243,0.062,0.062,0.075,0.115,0.115,0.047,0.077,0.077,0.163,0.014,,,,
2022-10-29,12:59:22.350,134.000,45.96110083,-66.62690577,-20.539,0.834,0.015,-0.040,0.000,0.034,0.025,0.043,-0.498,-0.859,-9.754,0.001,0.007,-9.804,253.737,-2.913,5.070,0.029,0.098,0.048,0.026,0.093,0.058,0.062,0.061,0.075,0.115,0.115,0.047,0.077,0.077,0.163,0.014,,,,
2022-10-29,12:59:23.350,135.000,45.96110082,-66.62690572,-20.539,0.844,0.014,-0.030,0.000,0.025,0.022,0.033,-0.503,-0.857,-9.765,-0.004,0.009,-9.815,253.735,-2.911,5.067,0.332,0.040,0.007,0.331,0.039,0.027,0.061,0.061,0.074,0.112,0.112,0.047,0.077,0.077,0.163,0.014,,,,
2022-10-29,12:59:24.350,136.000,45.96110082,-66.62690567,-20.540,0.852,0.013,-0.022,0.001,0.017,0.019,0.025,-0.496,-0.860,-9.755,0.002,0.005,-9.806,253.727,-2.910,5.062,-0.049,-0.150,-0.136,-0.041,-0.138,-0.151,0.062,0.062,0.075,0.115,0.115,0.047,0.077,0.077,0.163,0.014,,,,
2022-10-29,12:59:25.350,137.000,45.96110084,-66.62690567,-20.540,0.859,0.012,-0.019,0.001,0.015,0.016,0.022,-0.484,-0.867,-9.739,0.012,-0.005,-9.789,253.723,-2.909,5.058,-0.215,-0.215,0.308,-0.229,-0.241,0.277,0.062,0.061,0.075,0.112,0.112,0.047,0.077,0.077,0.163,0.014,,,,
2022-10-29,12:59:26.350,138.000,45.96110084,-66.62690566,-20.542,0.865,0.008,-0.018,0.000,0.015,0.013,0.020,-0.487,-0.866,-9.745,0.010,-0.003,-9.796,253.717,-2.909,5.059,0.005,-0.180,0.136,-0.001,-0.192,0.119,0.062,0.062,0.075,0.115,0.115,0.047,0.077,0.076,0.163,0.014,,,,
2022-10-29,12:59:27.350,139.000,45.96110085,-66.62690565,-20.544,0.870,0.006,-0.017,0.000,0.015,0.010,0.018,-0.494,-0.863,-9.756,0.004,0.000,-9.807,253.713,-2.912,5.057,0.014,-0.128,0.101,0.010,-0.136,0.090,0.062,0.062,0.075,0.112,0.112,0.047,0.077,0.076,0.163,0.012,,,,
2022-10-29,12:59:28.350,140.000,45.96110085,-66.62690564,-20.545,0.875,0.004,-0.017,0.000,0.015,0.008,0.017,-0.494,-0.860,-9.750,0.004,0.003,-9.800,253.713,-2.912,5.058,0.068,-0.013,-0.097,0.073,-0.004,-0.094,0.062,0.061,0.075,0.112,0.112,0.047,0.076,0.076,0.163,0.012,,,,
2022-10-29,12:59:29.350,141.000,45.96110082,-66.62690566,-20.545,0.880,-0.002,-0.019,0.000,0.019,0.003,0.019,-0.491,-0.867,-9.750,0.008,-0.005,-9.801,253.699,-2.914,5.054,-0.097,-0.199,-0.099,-0.091,-0.190,-0.121,0.061,0.061,0.074,0.112,0.112,0.047,0.076,0.076,0.163,0.012,,,,
2022-10-29,12:59:30.350,142.000,45.96110077,-66.62690568,-20.545,0.886,-0.010,-0.022,0.000,0.024,-0.003,0.024,-0.493,-0.859,-9.757,0.006,0.005,-9.807,253.699,-2.915,5.055,0.340,-0.115,0.184,0.330,-0.131,0.191,0.062,0.062,0.075,0.112,0.112,0.047,0.076,0.076,0.163,0.012,,,,
2022-10-29,12:59:31.350,143.000,45.96110075,-66.62690566,-20.545,0.892,-0.013,-0.019,0.000,0.022,-0.007,0.023,-0.499,-0.857,-9.743,-0.002,0.004,-9.793,253.695,-2.907,5.052,0.252,-0.281,-0.346,0.270,-0.250,-0.356,0.061,0.061,0.075,0.112,0.112,0.047,0.076,0.076,0.163,0.010,,,,
2022-10-29,12:59:32.350,144.000,45.96110072,-66.62690561,-20.545,0.898,-0.015,-0.009,-0.000,0.013,-0.012,0.017,-0.501,-0.860,-9.768,-0.004,0.003,-9.819,253.694,-2.903,5.051,-0.088,0.108,-0.133,-0.081,0.119,-0.128,0.061,0.061,0.074,0.112,0.112,0.047,0.076,0.076,0.163,0.010,,,,
2022-10-29,12:59:33.350,145.000,45.96110068,-66.62690554,-20.544,0.903,-0.017,0.001,0.000,0.004,-0.016,0.017,-0.492,-0.856,-9.753,0.004,0.007,-9.803,253.680,-2.898,5.053,0.319,-0.248,0.054,0.317,-0.251,0.048,0.062,0.061,0.075,0.112,0.112,0.047,0.076,0.075,0.163,0.010,,,,
2022-10-29,12:59:34.350,146.000,45.96110067,-66.62690550,-20.543,0.908,-0.016,0.008,0.000,-0.003,-0.017,0.018,-0.501,-0.866,-9.762,-0.005,-0.004,-9.814,253.669,-2.896,5.050,-0.216,0.234,-0.107,-0.211,0.243,-0.096,0.061,0.061,0.075,0.112,0.112,0.047,0.076,0.075,0.162,0.010,,,,
2022-10-29,12:59:35.350,147.000,45.96110068,-66.62690546,-20.542,0.913,-0.013,0.013,-0.000,-0.009,-0.016,0.018,-0.488,-0.863,-9.754,0.007,-0.001,-9.805,253.659,-2.891,5.052,0.174,0.022,0.099,0.169,0.013,0.109,0.061,0.061,0.074,0.112,0.112,0.047,0.076,0.075,0.163,0.008,,,,
2022-10-29,12:59:36.350,148.000,45.96110070,-66.62690541,-20.542,0.918,-0.010,0.018,-0.000,-0.015,-0.014,0.021,-0.500,-0.863,-9.753,-0.005,-0.001,-9.804,253.672,-2.893,5.047,-0.400,0.060,-0.100,-0.395,0.068,-0.114,0.062,0.061,0.075,0.112,0.112,0.047,0.075,0.074,0.162,0.008,,,,
2022-10-29,12:59:37.350,149.000,45.96110071,-66.62690538,-20.541,0.924,-0.007,0.021,-0.001,-0.018,-0.012,0.022,-0.494,-0.862,-9.760,0.002,0.000,-9.811,253.673,-2.896,5.050,-0.046,-0.066,0.021,-0.047,-0.068,0.012,0.061,0.061,0.075,0.112,0.112,0.047,0.076,0.075,0.162,0.008,,,,
2022-10-29,12:59:38.350,150.000,45.96110074,-66.62690539,-20.540,0.930,-0.004,0.018,-0.001,-0.016,-0.009,0.019,-0.491,-0.863,-9.745,0.005,-0.002,-9.796,253.675,-2.900,5.049,-0.011,-0.221,0.063,-0.014,-0.226,0.043,0.062,0.062,0.075,0.112,0.112,0.047,0.075,0.074,0.162,0.006,,,,
2022-10-29,12:59:39.350,151.000,45.96110073,-66.62690541,-20.540,0.935,-0.009,0.014,-0.001,-0.011,-0.012,0.016,-0.495,-0.859,-9.758,0.002,0.003,-9.809,253.687,-2.902,5.047,0.259,-0.050,-0.133,0.266,-0.038,-0.124,0.062,0.061,0.075,0.112,0.112,0.047,0.075,0.074,0.162,0.006,,,,
2022-10-29,12:59:40.350,152.000,45.96110070,-66.62690545,-20.539,0.939,-0.015,0.008,-0.001,-0.003,-0.017,0.017,-0.487,-0.865,-9.745,0.009,-0.004,-9.795,253.701,-2.907,5.047,-0.040,-0.286,0.152,-0.046,-0.298,0.124,0.061,0.061,0.075,0.112,0.112,0.047,0.075,0.074,0.162,0.006,,,,
2022-10-29,12:59:41.350,153.000,45.96110069,-66.62690549,-20.538,0.944,-0.019,0.000,-0.001,0.005,-0.018,0.019,-0.491,-0.864,-9.754,0.007,-0.003,-9.805,253.718,-2.910,5.046,0.015,-0.045,0.159,0.007,-0.059,0.155,0.062,0.062,0.075,0.112,0.112,0.047,0.074,0.074,0.162,0.006,,,,
2022-10-29,12:59:42.350,154.000,45.96110068,-66.62690552,-20.538,0.950,-0.022,-0.005,-0.001,0.011,-0.020,0.023,-0.494,-0.864,-9.755,0.004,-0.003,-9.805,253.731,-2.912,5.048,-0.112,0.061,0.045,-0.115,0.057,0.044,0.062,0.061,0.075,0.112,0.112,0.047,0.074,0.074,0.162,0.006,,,,
2022-10-29,12:59:43.350,155.000,45.96110067,-66.62690554,-20.539,0.957,-0.022,-0.010,-0.001,0.016,-0.019,0.024,-0.493,-0.865,-9.745,0.005,-0.004,-9.795,253.729,-2.914,5.051,-0.140,-0.128,-0.071,-0.135,-0.122,-0.089,0.061,0.061,0.075,0.112,0.112,0.047,0.074,0.074,0.162,0.006,,,,
2022-10-29,12:59:44.350,156.000,45.96110066,-66.62690557,-20.541,0.964,-0.023,-0.013,-0.001,0.019,-0.018,0.026,-0.499,-0.861,-9.763,-0.001,0.002,-9.813,253.728,-2.910,5.052,0.007,0.193,-0.001,0.006,0.192,0.017,0.062,0.062,0.075,0.112,0.112,0.047,0.074,0.074,0.162,0.004,,,,
2022-10-29,12:59:45.350,157.000,45.96110068,-66.62690558,-20.543,0.971,-0.018,-0.015,-0.000,0.019,-0.013,0.023,-0.490,-0.867,-9.749,0.008,-0.004,-9.799,253.736,-2.912,5.058,-0.087,-0.144,0.173,-0.095,-0.159,0.155,0.062,0.061,0.075,0.112,0.112,0.047,0.074,0.073,0.162,0.004,,,,
2022-10-29,12:59:46.350,158.000,45.96110071,-66.62690561,-20.545,0.977,-0.009,-0.018,0.000,0.020,-0.003,0.020,-0.498,-0.860,-9.758,0.001,0.004,-9.808,253.740,-2.913,5.063,0.057,-0.174,-0.023,0.059,-0.171,-0.035,0.061,0.061,0.075,0.112,0.112,0.047,0.074,0.073,0.162,0.004,,,,
2022-10-29,12:59:47.350,159.000,45.96110079,-66.62690563,-20.548,0.982,0.008,-0.021,0.000,0.018,0.013,0.023,-0.492,-0.863,-9.751,0.005,0.002,-9.802,253.731,-2.909,5.070,-0.021,0.038,0.209,-0.032,0.020,0.210,0.062,0.062,0.075,0.112,0.112,0.047,0.074,0.073,0.162,0.004,,,,
2022-10-29,12:59:48.350,160.000,45.96110086,-66.62690567,-20.549,0.990,0.021,-0.025,0.000,0.018,0.027,0.032,-0.497,-0.861,-9.755,0.001,0.004,-9.806,253.737,-2.911,5.069,-0.105,0.088,-0.065,-0.102,0.094,-0.062,0.061,0.061,0.075,0.112,0.112,0.047,0.073,0.073,0.162,0.002,,,,
2022-10-29,12:59:49.350,161.000,45.96110092,-66.62690567,-20.552,1.000,0.026,-0.025,0.000,0.017,0.032,0.036,-0.494,-0.870,-9.743,0.004,-0.005,-9.794,253.747,-2.909,5.070,-0.276,0.083,-0.096,-0.271,0.091,-0.102,0.061,0.061,0.074,0.112,0.112,0.047,0.073,0.073,0.162,0.002,,,,
2022-10-29,12:59:50.350,162.000,45.96110094,-66.62690566,-20.554,1.010,0.028,-0.024,0.001,0.015,0.033,0.037,-0.497,-0.853,-9.758,0.001,0.013,-9.808,253.741,-2.908,5.072,0.313,-0.010,-0.025,0.314,-0.008,-0.010,0.062,0.062,0.075,0.112,0.112,0.047,0.073,0.073,0.162,0.000,,,,
2022-10-29,12:59:51.350,163.000,45.96110096,-66.62690565,-20.556,1.020,0.028,-0.021,0.001,0.012,0.033,0.035,-0.496,-0.862,-9.766,0.002,0.005,-9.816,253.739,-2.907,5.074,0.284,0.054,0.093,0.279,0.046,0.112,0.061,0.061,0.075,0.112,0.112,0.047,0.073,0.073,0.161,0.000,,,,
2022-10-29,12:59:52.350,164.000,45.96110094,-66.62690564,-20.556,1.029,0.025,-0.017,0.001,0.009,0.029,0.030,-0.494,-0.863,-9.759,0.003,0.002,-9.810,253.740,-2.904,5.067,0.004,-0.037,0.379,-0.015,-0.071,0.374,0.061,0.061,0.074,0.112,0.112,0.047,0.073,0.073,0.161,0.000,,,,
2022-10-29,12:59:53.350,165.000,45.96110090,-66.62690561,-20.557,1.036,0.018,-0.010,0.001,0.005,0.021,0.021,-0.496,-0.866,-9.757,0.000,-0.001,-9.808,253.735,-2.903,5.066,-0.014,0.110,0.028,-0.016,0.107,0.037,0.062,0.061,0.075,0.112,0.112,0.047,0.073,0.072,0.161,-0.002,,,,
2022-10-29,12:59:54.350,166.000,45.96110085,-66.62690559,-20.555,1.041,0.010,-0.007,0.001,0.004,0.011,0.012,-0.498,-0.861,-9.759,-0.001,0.003,-9.810,253.735,-2.904,5.061,0.006,0.048,-0.095,0.010,0.056,-0.090,0.061,0.061,0.075,0.112,0.112,0.047,0.073,0.072,0.161,-0.002,,,,
2022-10-29,12:59:55.350,167.000,45.96110081,-66.62690559,-20.554,1.044,0.003,-0.008,0.003,0.007,0.005,0.009,-0.492,-0.862,-9.750,0.005,0.001,-9.801,253.733,-2.908,5.060,-0.146,-0.162,-0.011,-0.145,-0.160,-0.032,0.061,0.061,0.074,0.108,0.108,0.047,0.073,0.072,0.161,-0.002,,,,
2022-10-29,12:59:56.350,168.000,45.96110079,-66.62690561,-20.553,1.046,0.003,-0.011,0.002,0.010,0.006,0.011,-0.500,-0.854,-9.764,-0.003,0.012,-9.814,253.719,-2.907,5.068,0.376,0.158,-0.070,0.379,0.164,-0.037,0.062,0.061,0.075,0.112,0.112,0.047,0.073,0.072,0.161,-0.004,,,,
2022-10-29,12:59:57.350,169.000,45.96110079,-66.62690562,-20.552,1.050,0.006,-0.014,0.002,0.011,0.010,0.015,-0.484,-0.866,-9.746,0.013,-0.001,-9.797,253.699,-2.910,5.069,0.002,-0.172,0.226,-0.008,-0.191,0.210,0.061,0.061,0.075,0.108,0.108,0.047,0.072,0.072,0.160,-0.004,,,,
2022-10-29,12:59:58.350,170.000,45.96110078,-66.62690563,-20.552,1.055,0.010,-0.015,0.002,0.012,0.014,0.018,-0.492,-0.861,-9.741,0.005,0.003,-9.791,253.680,-2.908,5.071,-0.108,-0.213,-0.106,-0.101,-0.203,-0.130,0.061,0.061,0.074,0.108,0.108,0.047,0.072,0.072,0.160,-0.006,,,,
2022-10-29,12:59:59.350,171.000,45.96110079,-66.62690562,-20.552,1.060,0.014,-0.015,0.002,0.010,0.018,0.020,-0.488,-0.862,-9.749,0.008,0.004,-9.799,253.667,-2.902,5.073,0.066,-0.120,0.024,0.065,-0.121,0.017,0.061,0.061,0.074,0.108,0.108,0.047,0.072,0.072,0.160,-0.006,,,,
2022-10-29,13:00:00.350,172.000,45.96110078,-66.62690560,-20.550,1.066,0.017,-0.012,0.003,0.007,0.020,0.021,-0.491,-0.869,-9.757,0.006,-0.003,-9.808,253.663,-2.903,5.072,-0.324,0.017,0.231,-0.335,-0.003,0.215,0.061,0.061,0.075,0.108,0.108,0.047,0.072,0.071,0.160,-0.006,,,,
2022-10-29,13:00:01.350,173.000,45.96110080,-66.62690556,-20.549,1.072,0.024,-0.010,0.002,0.003,0.026,0.026,-0.492,-0.856,-9.759,0.005,0.011,-9.808,253.649,-2.907,5.078,0.238,-0.172,0.103,0.234,-0.180,0.099,0.061,0.061,0.074,0.108,0.108,0.047,0.072,0.071,0.160,-0.006,,,,
2022-10-29,13:00:02.350,174.000,45.96110083,-66.62690554,-20.547,1.080,0.030,-0.010,0.002,0.001,0.031,0.031,-0.503,-0.859,-9.777,-0.005,0.010,-9.828,253.638,-2.902,5.078,0.163,0.314,-0.002,0.161,0.313,0.034,0.061,0.061,0.074,0.108,0.108,0.047,0.072,0.071,0.160,-0.008,,,,
2022-10-29,13:00:03.350,175.000,45.96110084,-66.62690550,-20.547,1.089,0.032,-0.007,0.001,-0.002,0.033,0.033,-0.495,-0.853,-9.767,0.002,0.014,-9.817,253.629,-2.901,5.076,0.278,-0.088,-0.029,0.280,-0.085,-0.023,0.061,0.061,0.075,0.108,0.108,0.047,0.072,0.071,0.160,-0.008,,,,
2022-10-29,13:00:04.350,176.000,45.96110085,-66.62690547,-20.546,1.098,0.034,-0.005,0.001,-0.005,0.034,0.035,-0.492,-0.863,-9.741,0.003,0.002,-9.792,253.625,-2.900,5.076,-0.202,-0.214,-0.074,-0.197,-0.206,-0.103,0.061,0.061,0.074,0.108,0.108,0.047,0.072,0.071,0.160,-0.008,,,,
2022-10-29,13:00:05.350,177.000,45.96110086,-66.62690546,-20.546,1.108,0.037,-0.005,0.001,-0.006,0.037,0.038,-0.497,-0.863,-9.760,-0.001,0.004,-9.811,253.622,-2.898,5.079,-0.013,0.303,0.124,-0.021,0.290,0.150,0.062,0.061,0.075,0.108,0.108,0.047,0.071,0.071,0.160,-0.008,,,,
2022-10-29,13:00:06.350,178.000,45.96110089,-66.62690547,-20.546,1.119,0.042,-0.005,0.001,-0.007,0.042,0.042,-0.498,-0.866,-9.763,-0.002,0.002,-9.814,253.620,-2.899,5.078,-0.124,0.328,0.005,-0.125,0.327,0.027,0.061,0.061,0.075,0.108,0.108,0.047,0.071,0.070,0.160,-0.006,,,,
2022-10-29,13:00:07.350,179.000,45.96110090,-66.62690549,-20.546,1.131,0.042,-0.007,0.001,-0.005,0.042,0.043,-0.496,-0.858,-9.748,-0.001,0.008,-9.799,253.619,-2.896,5.074,-0.061,-0.070,-0.237,-0.048,-0.049,-0.245,0.061,0.061,0.075,0.108,0.108,0.047,0.070,0.070,0.160,-0.006,,,,
2022-10-29,13:00:08.350,180.000,45.96110093,-66.62690550,-20.547,1.143,0.041,-0.007,-0.001,-0.005,0.042,0.042,-0.499,-0.865,-9.780,-0.002,0.003,-9.831,253.619,-2.896,5.075,0.100,0.465,0.201,0.088,0.446,0.246,0.061,0.061,0.074,0.108,0.108,0.047,0.071,0.070,0.160,-0.006,,,,
2022-10-29,13:00:09.350,181.000,45.96110093,-66.62690552,-20.548,1.154,0.039,-0.006,-0.000,-0.005,0.039,0.040,-0.496,-0.867,-9.759,-0.000,-0.001,-9.810,253.626,-2.899,5.068,-0.193,-0.040,0.152,-0.200,-0.053,0.138,0.061,0.061,0.075,0.108,0.108,0.047,0.070,0.070,0.160,-0.006,,,,
2022-10-29,13:00:10.350,182.000,45.96110092,-66.62690555,-20.550,1.165,0.032,-0.008,-0.001,-0.001,0.033,0.033,-0.491,-0.862,-9.754,0.005,0.002,-9.804,253.631,-2.901,5.065,-0.073,0.030,0.104,-0.079,0.021,0.102,0.061,0.061,0.075,0.108,0.108,0.047,0.070,0.070,0.159,-0.004,,,,
2022-10-29,13:00:11.350,183.000,45.96110089,-66.62690557,-20.552,1.173,0.022,-0.010,-0.001,0.003,0.024,0.024,-0.499,-0.865,-9.759,-0.002,-0.000,-9.810,253.640,-2.903,5.062,0.053,0.096,-0.013,0.053,0.097,-0.001,0.061,0.061,0.074,0.108,0.108,0.047,0.070,0.070,0.160,-0.004,,,,
2022-10-29,13:00:12.350,184.000,45.96110086,-66.62690559,-20.553,1.178,0.013,-0.012,-0.000,0.008,0.016,0.018,-0.487,-0.873,-9.750,0.010,-0.011,-9.801,253.642,-2.905,5.053,-0.336,-0.156,0.524,-0.362,-0.201,0.490,0.061,0.061,0.075,0.108,0.108,0.047,0.070,0.070,0.159,-0.002,,,,
2022-10-29,13:00:13.350,185.000,45.96110084,-66.62690559,-20.555,1.182,0.005,-0.011,-0.001,0.009,0.008,0.012,-0.491,-0.865,-9.753,0.006,-0.002,-9.804,253.647,-2.907,5.051,-0.160,-0.014,0.039,-0.162,-0.017,0.029,0.061,0.061,0.074,0.108,0.108,0.047,0.070,0.069,0.159,-0.002,,,,
2022-10-29,13:00:14.350,186.000,45.96110082,-66.62690559,-20.555,1.186,-0.001,-0.012,-0.001,0.011,0.003,0.012,-0.488,-0.858,-9.761,0.010,0.005,-9.811,253.653,-2.909,5.052,0.314,-0.023,0.211,0.303,-0.042,0.224,0.061,0.061,0.074,0.108,0.108,0.047,0.070,0.069,0.159,-0.002,,,,
2022-10-29,13:00:15.350,187.000,45.96110078,-66.62690557,-20.555,1.189,-0.009,-0.010,-0.001,0.012,-0.006,0.013,-0.483,-0.867,-9.744,0.014,-0.006,-9.794,253.652,-2.908,5.051,-0.062,-0.115,0.102,-0.066,-0.124,0.088,0.061,0.061,0.075,0.108,0.108,0.047,0.070,0.069,0.159,0.000,,,,
2022-10-29,13:00:16.350,188.000,45.96110074,-66.62690553,-20.554,1.193,-0.014,-0.009,-0.001,0.012,-0.011,0.017,-0.492,-0.860,-9.743,0.006,0.001,-9.794,253.656,-2.912,5.050,0.015,-0.233,-0.216,0.027,-0.213,-0.235,0.061,0.061,0.074,0.108,0.108,0.047,0.069,0.069,0.159,0.000,,,,
2022-10-29,13:00:17.350,189.000,45.96110071,-66.62690552,-20.552,1.198,-0.017,-0.010,-0.001,0.014,-0.014,0.020,-0.488,-0.866,-9.755,0.011,-0.003,-9.806,253.657,-2.915,5.052,-0.184,-0.142,0.295,-0.199,-0.168,0.272,0.061,0.061,0.074,0.108,0.108,0.047,0.070,0.069,0.159,0.002,,,,
2022-10-29,13:00:18.350,190.000,45.96110068,-66.62690551,-20.549,1.204,-0.018,-0.012,-0.001,0.016,-0.014,0.021,-0.495,-0.865,-9.757,0.003,-0.002,-9.808,253.647,-2.913,5.057,-0.114,0.054,-0.025,-0.113,0.056,-0.026,0.061,0.061,0.075,0.108,0.108,0.047,0.069,0.069,0.159,0.002,,,,
2022-10-29,13:00:19.350,191.000,45.96110066,-66.62690551,-20.548,1.210,-0.016,-0.014,-0.001,0.018,-0.011,0.021,-0.487,-0.869,-9.743,0.010,-0.007,-9.794,253.642,-2.912,5.057,-0.154,-0.303,0.352,-0.170,-0.332,0.316,0.061,0.061,0.074,0.108,0.108,0.047,0.069,0.069,0.159,0.002,,,,
2022-10-29,13:00:20.350,192.000,45.96110067,-66.62690554,-20.547,1.216,-0.010,-0.018,-0.002,0.020,-0.005,0.021,-0.494,-0.862,-9.751,0.004,0.001,-9.802,253.643,-2.914,5.060,-0.032,-0.235,-0.005,-0.031,-0.234,-0.027,0.061,0.061,0.074,0.108,0.108,0.047,0.069,0.069,0.159,0.004,,,,
2022-10-29,13:00:21.350,193.000,45.96110071,-66.62690558,-20.546,1.221,-0.002,-0.022,-0.002,0.021,0.004,0.022,-0.493,-0.853,-9.755,0.006,0.011,-9.805,253.652,-2.912,5.060,0.231,-0.215,-0.034,0.233,-0.211,-0.041,0.061,0.061,0.075,0.108,0.108,0.047,0.069,0.069,0.159,0.004,,,,
2022-10-29,13:00:22.350,194.000,45.96110076,-66.62690561,-20.547,1.228,0.006,-0.025,-0.003,0.022,0.013,0.026,-0.493,-0.868,-9.750,0.005,-0.003,-9.801,253.649,-2.911,5.066,-0.002,0.002,-0.022,-0.001,0.004,-0.022,0.061,0.061,0.075,0.108,0.108,0.047,0.069,0.068,0.159,0.006,,,,
2022-10-29,13:00:23.350,195.000,45.96110080,-66.62690562,-20.547,1.235,0.012,-0.024,-0.003,0.019,0.018,0.027,-0.496,-0.862,-9.744,0.001,0.001,-9.794,253.631,-2.910,5.063,-0.001,-0.222,-0.217,0.011,-0.202,-0.235,0.061,0.061,0.074,0.104,0.104,0.047,0.069,0.069,0.159,0.006,,,,
2022-10-29,13:00:24.350,196.000,45.96110082,-66.62690562,-20.547,1.243,0.014,-0.021,-0.002,0.016,0.019,0.025,-0.505,-0.855,-9.768,-0.008,0.011,-9.818,253.613,-2.906,5.063,0.177,-0.064,-0.202,0.187,-0.046,-0.197,0.061,0.061,0.075,0.108,0.108,0.047,0.069,0.068,0.159,0.006,,,,
2022-10-29,13:00:25.350,197.000,45.96110085,-66.62690560,-20.548,1.249,0.017,-0.015,-0.002,0.009,0.020,0.022,-0.499,-0.872,-9.754,-0.003,-0.008,-9.805,253.603,-2.902,5.061,-0.556,0.189,-0.045,-0.554,0.192,-0.057,0.061,0.061,0.075,0.108,0.108,0.047,0.068,0.068,0.158,0.008,,,,
2022-10-29,13:00:26.350,198.000,45.96110086,-66.62690557,-20.551,1.255,0.019,-0.008,-0.002,0.003,0.020,0.020,-0.501,-0.860,-9.762,-0.005,0.005,-9.812,253.603,-2.896,5.062,-0.222,0.260,-0.218,-0.212,0.278,-0.205,0.061,0.061,0.074,0.104,0.104,0.047,0.069,0.068,0.159,0.008,,,,
2022-10-29,13:00:27.350,199.000,45.96110088,-66.62690555,-20.553,1.261,0.019,-0.002,-0.002,-0.004,0.019,0.019,-0.491,-0.858,-9.747,0.004,0.004,-9.797,253.610,-2.894,5.058,-0.195,-0.143,0.214,-0.205,-0.161,0.191,0.061,0.061,0.075,0.108,0.108,0.047,0.068,0.068,0.158,0.008,,,,
2022-10-29,13:00:28.350,200.000,45.96110090,-66.62690553,-20.555,1.266,0.020,0.004,-0.002,-0.009,0.018,0.020,-0.488,-0.875,-9.753,0.007,-0.012,-9.804,253.621,-2.894,5.057,-0.133,-0.036,0.296,-0.148,-0.061,0.284,0.061,0.061,0.075,0.104,0.104,0.047,0.068,0.068,0.159,0.008,,,,
2022-10-29,13:00:29.350,201.000,45.96110090,-66.62690551,-20.557,1.272,0.019,0.006,-0.002,-0.011,0.016,0.020,-0.501,-0.863,-9.761,-0.005,0.002,-9.812,253.627,-2.895,5.060,0.046,0.158,0.057,0.043,0.152,0.073,0.061,0.061,0.075,0.108,0.108,0.047,0.068,0.068,0.158,0.008,,,,
2022-10-29,13:00:30.350,202.000,45.96110087,-66.62690551,-20.556,1.277,0.014,0.004,-0.001,-0.008,0.013,0.015,-0.501,-0.860,-9.760,-0.005,0.004,-9.811,253.627,-2.902,5.059,-0.144,0.084,-0.064,-0.141,0.090,-0.063,0.061,0.061,0.075,0.104,0.104,0.047,0.068,0.068,0.158,0.008,,,,
2022-10-29,13:00:31.350,203.000,45.96110084,-66.62690551,-20.555,1.280,0.010,0.002,-0.002,-0.005,0.009,0.010,-0.500,-0.853,-9.764,-0.003,0.011,-9.814,253.608,-2.904,5.061,0.277,-0.132,-0.001,0.277,-0.132,0.001,0.061,0.061,0.075,0.104,0.104,0.047,0.068,0.068,0.158,0.008,,,,
2022-10-29,13:00:32.350,204.000,45.96110080,-66.62690552,-20.554,1.282,0.006,-0.002,-0.002,0.000,0.007,0.007,-0.502,-0.864,-9.757,-0.004,0.001,-9.808,253.587,-2.907,5.060,-0.257,-0.060,-0.058,-0.253,-0.054,-0.076,0.061,0.061,0.075,0.104,0.104,0.047,0.068,0.067,0.158,0.008,,,,
2022-10-29,13:00:33.350,205.000,45.96110077,-66.62690556,-20.552,1.284,0.004,-0.008,-0.002,0.006,0.006,0.009,-0.491,-0.857,-9.758,0.007,0.008,-9.808,253.589,-2.908,5.062,0.473,-0.148,0.113,0.468,-0.157,0.123,0.061,0.061,0.075,0.104,0.104,0.047,0.068,0.067,0.158,0.008,,,,
2022-10-29,13:00:34.350,206.000,45.96110078,-66.62690561,-20.550,1.288,0.007,-0.015,-0.002,0.012,0.011,0.016,-0.498,-0.851,-9.766,0.001,0.014,-9.815,253.583,-2.911,5.064,0.335,-0.104,-0.160,0.343,-0.090,-0.152,0.061,0.061,0.075,0.104,0.104,0.047,0.068,0.067,0.158,0.008,,,,
2022-10-29,13:00:35.350,207.000,45.96110078,-66.62690563,-20.550,1.293,0.009,-0.018,-0.003,0.015,0.014,0.021,-0.489,-0.859,-9.757,0.009,0.005,-9.807,253.575,-2.909,5.064,0.169,-0.066,0.058,0.166,-0.071,0.061,0.061,0.061,0.075,0.104,0.104,0.047,0.068,0.067,0.158,0.006,,,,
2022-10-29,13:00:36.350,208.000,45.96110079,-66.62690565,-20.549,1.299,0.013,-0.022,-0.002,0.017,0.018,0.025,-0.504,-0.861,-9.754,-0.007,0.003,-9.805,253.570,-2.911,5.063,-0.255,0.054,-0.307,-0.239,0.081,-0.314,0.061,0.061,0.075,0.104,0.104,0.047,0.067,0.066,0.158,0.006,,,,
2022-10-29,13:00:37.350,209.000,45.96110081,-66.62690567,-20.548,1.307,0.015,-0.024,-0.002,0.019,0.022,0.029,-0.502,-0.860,-9.769,-0.004,0.006,-9.819,253.571,-2.908,5.064,-0.060,0.215,-0.035,-0.059,0.218,-0.019,0.061,0.061,0.075,0.104,0.104,0.047,0.067,0.066,0.158,0.006,,,,
2022-10-29,13:00:38.350,210.000,45.96110082,-66.62690565,-20.548,1.315,0.018,-0.023,-0.002,0.017,0.024,0.029,-0.498,-0.867,-9.759,-0.000,-0.002,-9.810,253.578,-2.908,5.068,-0.038,0.181,0.078,-0.043,0.173,0.092,0.061,0.060,0.074,0.104,0.104,0.047,0.067,0.066,0.158,0.006,,,,
2022-10-29,13:00:39.350,211.000,45.96110083,-66.62690564,-20.548,1.323,0.021,-0.022,-0.002,0.015,0.027,0.031,-0.493,-0.863,-9.756,0.005,0.003,-9.806,253.584,-2.908,5.073,-0.050,0.007,0.113,-0.056,-0.003,0.111,0.061,0.061,0.075,0.104,0.104,0.047,0.067,0.066,0.158,0.006,,,,
2022-10-29,13:00:40.350,212.000,45.96110088,-66.62690566,-20.549,1.332,0.029,-0.025,-0.001,0.016,0.035,0.038,-0.483,-0.870,-9.732,0.015,-0.006,-9.783,253.609,-2.914,5.075,-0.160,-0.452,0.129,-0.165,-0.462,0.080,0.061,0.061,0.075,0.104,0.104,0.047,0.067,0.066,0.158,0.004,,,,
2022-10-29,13:00:41.350,213.000,45.96110093,-66.62690569,-20.549,1.344,0.036,-0.028,-0.002,0.017,0.043,0.046,-0.501,-0.860,-9.754,-0.003,0.006,-9.805,253.634,-2.909,5.072,0.009,0.154,0.006,0.008,0.152,0.020,0.061,0.061,0.075,0.104,0.104,0.047,0.066,0.066,0.158,0.004,,,,
2022-10-29,13:00:42.350,214.000,45.96110095,-66.62690571,-20.549,1.357,0.037,-0.028,-0.003,0.017,0.044,0.047,-0.499,-0.860,-9.767,-0.001,0.007,-9.818,253.651,-2.907,5.070,0.045,0.213,0.073,0.041,0.206,0.093,0.061,0.061,0.075,0.104,0.104,0.047,0.066,0.066,0.158,0.004,,,,
2022-10-29,13:00:43.350,215.000,45.96110093,-66.62690572,-20.550,1.370,0.032,-0.027,-0.003,0.017,0.038,0.042,-0.493,-0.872,-9.762,0.005,-0.007,-9.813,253.657,-2.908,5.066,-0.188,0.110,0.219,-0.199,0.090,0.218,0.061,0.061,0.075,0.104,0.104,0.047,0.066,0.066,0.158,0.004,,,,
2022-10-29,13:00:44.350,216.000,45.96110090,-66.62690570,-20.549,1.380,0.025,-0.020,-0.004,0.012,0.030,0.032,-0.513,-0.862,-9.777,-0.015,0.004,-9.828,253.657,-2.906,5.063,0.056,0.251,-0.147,0.062,0.263,-0.122,0.061,0.061,0.075,0.104,0.104,0.047,0.066,0.066,0.157,0.004,,,,
2022-10-29,13:00:45.350,217.000,45.96110087,-66.62690567,-20.548,1.390,0.022,-0.020,-0.002,0.013,0.027,0.030,-0.513,-0.868,-9.765,-0.016,-0.003,-9.817,253.625,-2.905,5.066,-0.139,0.352,0.096,-0.145,0.342,0.120,0.061,0.061,0.075,0.104,0.104,0.047,0.066,0.065,0.157,0.004,,,,
